counter,state,pitch,roll,yaw,gps_yaw,pitch_rate,roll_rate,yaw_rate,lng,lat,baro_alt,gps_alt,alt,velocity_x,velocity_y,velocity_z,accel_x,accel_y,accel_z,gps_num,hdop,vdop,gps_status,gps_week,gps_day,gps_hh,gps_mm,gps_ss,gps_ms,velocity_air,temp,hdt,hdg_dev,mainaccel,maingyro,maincompass,maingps,gps0_delay,gps1_delay,gps_velocity_x,gps_velocity_y,gps_velocity_z,pitch_vec,roll_vec,yaw_vec
2960.000000000000000 ,0.000000000000000 ,-0.406267000000000 ,5.236976000000000 ,212.614562000000000 ,0.000000000000000 ,-0.323852000000000 ,-0.988398000000000 ,0.197133000000000 ,120.019356300000000 ,35.787406700000000 ,0.010000000000000 ,-8.730000000000000 ,0.010000000000000 ,-0.039102000000000 ,-0.049194000000000 ,-0.056000000000000 ,-0.041627000000000 ,-0.144575000000000 ,-9.866146000000000 ,5.000000000000000 ,10.760000000000000 ,10.760000000000000 ,3.000000000000000 ,2229.000000000000000 ,4.000000000000000 ,2.000000000000000 ,55.000000000000000 ,29.000000000000000 ,349.000000000000000 ,0.000000000000000 ,33.000000000000000 ,-1.000000000000000 ,-122.000000000000000 ,1.000000000000000 ,1.000000000000000 ,1.000000000000000 ,0.000000000000000 ,100.000000000000000 ,2600.000000000000000 ,-0.053000000000000 ,0.054000000000000 ,0.073000000000000 ,0.000000000000000 ,0.000000000000000 ,0.000000000000000 
3100.000000000000000 ,0.000000000000000 ,-0.171574000000000 ,5.599787000000000 ,213.681391000000000 ,0.000000000000000 ,-0.422547000000000 ,-1.204755000000000 ,0.290092000000000 ,120.019357900000000 ,35.787410800000000 ,0.000000000000000 ,-6.600000000000000 ,0.000000000000000 ,-0.041780000000000 ,-0.053747000000000 ,-0.066620000000000 ,-0.059721000000000 ,0.009968000000000 ,-9.713868000000000 ,5.000000000000000 ,10.760000000000000 ,10.760000000000000 ,3.000000000000000 ,2229.000000000000000 ,4.000000000000000 ,2.000000000000000 ,55.000000000000000 ,30.000000000000000 ,49.000000000000000 ,0.000000000000000 ,33.000000000000000 ,-1.000000000000000 ,-122.000000000000000 ,1.000000000000000 ,1.000000000000000 ,1.000000000000000 ,0.000000000000000 ,0.000000000000000 ,3300.000000000000000 ,0.037000000000000 ,0.090000000000000 ,0.076000000000000 ,0.000000000000000 ,0.000000000000000 ,0.000000000000000 
3240.000000000000000 ,0.000000000000000 ,-0.215967000000000 ,5.347195000000000 ,214.040855000000000 ,0.000000000000000 ,0.592012000000000 ,0.942938000000000 ,0.408886000000000 ,120.019359000000000 ,35.787412600000000 ,0.070000000000000 ,-5.380000000000000 ,0.070000000000000 ,-0.046682000000000 ,-0.056006000000000 ,-0.088078000000000 ,0.067306000000000 ,-0.005836000000000 ,-9.841436000000000 ,5.000000000000000 ,10.760000000000000 ,10.760000000000000 ,3.000000000000000 ,2229.000000000000000 ,4.000000000000000 ,2.000000000000000 ,55.000000000000000 ,30.000000000000000 ,749.000000000000000 ,0.000000000000000 ,33.000000000000000 ,-1.000000000000000 ,-122.000000000000000 ,1.000000000000000 ,1.000000000000000 ,1.000000000000000 ,0.000000000000000 ,100.000000000000000 ,0.000000000000000 ,0.002000000000000 ,0.036000000000000 ,0.079000000000000 ,0.000000000000000 ,0.000000000000000 ,0.000000000000000 
3380.000000000000000 ,0.000000000000000 ,-0.264763000000000 ,5.335133000000000 ,214.147405000000000 ,0.000000000000000 ,-1.016069000000000 ,0.946573000000000 ,0.442967000000000 ,120.019361000000000 ,35.787411800000000 ,0.130000000000000 ,-1.800000000000000 ,0.130000000000000 ,-0.047460000000000 ,-0.038513000000000 ,-0.089598000000000 ,-0.043706000000000 ,0.060037000000000 ,-9.895016000000000 ,5.000000000000000 ,10.760000000000000 ,10.760000000000000 ,3.000000000000000 ,2229.000000000000000 ,4.000000000000000 ,2.000000000000000 ,55.000000000000000 ,31.000000000000000 ,449.000000000000000 ,0.000000000000000 ,33.000000000000000 ,-1.000000000000000 ,-122.000000000000000 ,1.000000000000000 ,1.000000000000000 ,1.000000000000000 ,0.000000000000000 ,0.000000000000000 ,700.000000000000000 ,-0.054000000000000 ,0.020000000000000 ,0.076000000000000 ,0.000000000000000 ,0.000000000000000 ,0.000000000000000 
3520.000000000000000 ,0.000000000000000 ,-0.328973000000000 ,5.268492000000000 ,214.171433000000000 ,0.000000000000000 ,-0.115991000000000 ,-0.885450000000000 ,-0.156428000000000 ,120.019364800000000 ,35.787414200000000 ,-0.160000000000000 ,2.020000000000000 ,-0.160000000000000 ,-0.036049000000000 ,-0.047168000000000 ,-0.083945000000000 ,-0.007269000000000 ,-0.109165000000000 ,-9.836067000000000 ,5.000000000000000 ,10.750000000000000 ,10.750000000000000 ,3.000000000000000 ,2229.000000000000000 ,4.000000000000000 ,2.000000000000000 ,55.000000000000000 ,32.000000000000000 ,149.000000000000000 ,0.000000000000000 ,33.000000000000000 ,-1.000000000000000 ,-122.000000000000000 ,1.000000000000000 ,1.000000000000000 ,1.000000000000000 ,0.000000000000000 ,100.000000000000000 ,1400.000000000000000 ,-0.041000000000000 ,0.012000000000000 ,0.062000000000000 ,0.000000000000000 ,0.000000000000000 ,0.000000000000000 
3660.000000000000000 ,0.000000000000000 ,-0.527179000000000 ,5.423755000000000 ,214.730494000000000 ,0.000000000000000 ,-0.469427000000000 ,-2.488642000000000 ,1.022289000000000 ,120.019366600000000 ,35.787420000000000 ,0.060000000000000 ,7.920000000000000 ,0.060000000000000 ,-0.043026000000000 ,-0.048506000000000 ,-0.068671000000000 ,-0.001709000000000 ,-0.103876000000000 ,-9.811852000000000 ,5.000000000000000 ,10.750000000000000 ,10.750000000000000 ,3.000000000000000 ,2229.000000000000000 ,4.000000000000000 ,2.000000000000000 ,55.000000000000000 ,32.000000000000000 ,849.000000000000000 ,0.000000000000000 ,33.000000000000000 ,-1.000000000000000 ,-122.000000000000000 ,1.000000000000000 ,1.000000000000000 ,1.000000000000000 ,0.000000000000000 ,0.000000000000000 ,2100.000000000000000 ,-0.275000000000000 ,0.237000000000000 ,0.085000000000000 ,0.000000000000000 ,0.000000000000000 ,0.000000000000000 
3800.000000000000000 ,0.000000000000000 ,-1.312611000000000 ,4.720606000000000 ,217.127029000000000 ,0.000000000000000 ,-1.055711000000000 ,-3.662971000000000 ,10.787908000000000 ,120.019367500000000 ,35.787420500000000 ,-0.120000000000000 ,9.410000000000000 ,-0.120000000000000 ,-0.048291000000000 ,-0.064064000000000 ,-0.071549000000000 ,0.265361000000000 ,-0.654992000000000 ,-11.263789000000000 ,5.000000000000000 ,10.750000000000000 ,10.750000000000000 ,3.000000000000000 ,2229.000000000000000 ,4.000000000000000 ,2.000000000000000 ,55.000000000000000 ,33.000000000000000 ,549.000000000000000 ,0.000000000000000 ,33.000000000000000 ,-1.000000000000000 ,-122.000000000000000 ,1.000000000000000 ,1.000000000000000 ,1.000000000000000 ,0.000000000000000 ,100.000000000000000 ,2800.000000000000000 ,-0.075000000000000 ,-0.042000000000000 ,0.129000000000000 ,0.000000000000000 ,0.000000000000000 ,0.000000000000000 
3940.000000000000000 ,0.000000000000000 ,-17.603097000000000 ,3.504785000000000 ,231.171827000000000 ,106.879478000000000 ,-36.819431000000000 ,9.321547000000000 ,39.944321000000000 ,120.019369400000000 ,35.787424300000000 ,-0.090000000000000 ,9.110000000000000 ,-0.090000000000000 ,-0.070290000000000 ,-0.014632000000000 ,-0.081667000000000 ,0.905495000000000 ,0.100591000000000 ,-9.923876000000000 ,5.000000000000000 ,3.890000000000000 ,10.030000000000000 ,3.000000000000000 ,2229.000000000000000 ,4.000000000000000 ,2.000000000000000 ,55.000000000000000 ,34.000000000000000 ,249.000000000000000 ,0.000000000000000 ,33.000000000000000 ,-1.000000000000000 ,-122.000000000000000 ,1.000000000000000 ,1.000000000000000 ,1.000000000000000 ,0.000000000000000 ,0.000000000000000 ,3500.000000000000000 ,0.792000000000000 ,-0.778000000000000 ,0.707000000000000 ,0.000000000000000 ,0.000000000000000 ,0.000000000000000 
4080.000000000000000 ,1.000000000000000 ,3.249926000000000 ,-24.198425000000000 ,305.725261000000000 ,106.879478000000000 ,-74.406767000000000 ,-84.189443000000000 ,41.542477000000000 ,120.019366300000000 ,35.787426300000000 ,0.230000000000000 ,9.780000000000000 ,0.230000000000000 ,0.047257000000000 ,0.057204000000000 ,-0.063920000000000 ,0.998423000000000 ,-1.091001000000000 ,-10.706083000000000 ,5.000000000000000 ,3.890000000000000 ,10.030000000000000 ,3.000000000000000 ,2229.000000000000000 ,4.000000000000000 ,2.000000000000000 ,55.000000000000000 ,34.000000000000000 ,949.000000000000000 ,0.000000000000000 ,34.000000000000000 ,-1.000000000000000 ,-122.000000000000000 ,1.000000000000000 ,1.000000000000000 ,1.000000000000000 ,0.000000000000000 ,100.000000000000000 ,200.000000000000000 ,0.131000000000000 ,0.060000000000000 ,0.644000000000000 ,0.000000000000000 ,0.000000000000000 ,0.000000000000000 
4220.000000000000000 ,1.000000000000000 ,-14.409437000000000 ,-41.861530000000000 ,313.330462000000000 ,106.879478000000000 ,-8.627999000000000 ,-86.309994000000000 ,64.353001000000000 ,120.019369700000000 ,35.787425500000000 ,0.160000000000000 ,10.850000000000000 ,0.160000000000000 ,0.243600000000000 ,0.038941000000000 ,-0.153250000000000 ,-0.206552000000000 ,-1.698451000000000 ,-8.926867000000000 ,5.000000000000000 ,3.890000000000000 ,10.030000000000000 ,3.000000000000000 ,2229.000000000000000 ,4.000000000000000 ,2.000000000000000 ,55.000000000000000 ,35.000000000000000 ,649.000000000000000 ,0.000000000000000 ,34.000000000000000 ,-1.000000000000000 ,-122.000000000000000 ,1.000000000000000 ,1.000000000000000 ,1.000000000000000 ,0.000000000000000 ,0.000000000000000 ,900.000000000000000 ,-0.074000000000000 ,-0.334000000000000 ,0.516000000000000 ,0.000000000000000 ,0.000000000000000 ,0.000000000000000 
4360.000000000000000 ,1.000000000000000 ,8.131830000000000 ,-12.389679000000000 ,354.053097000000000 ,106.879478000000000 ,-16.680634000000000 ,-25.572102000000000 ,88.937698000000000 ,120.019361900000000 ,35.787427800000000 ,0.160000000000000 ,11.330000000000000 ,0.160000000000000 ,0.481200000000000 ,-0.267450000000000 ,-0.127419000000000 ,0.513700000000000 ,-0.232619000000000 ,-10.249478000000000 ,5.000000000000000 ,3.890000000000000 ,10.030000000000000 ,3.000000000000000 ,2229.000000000000000 ,4.000000000000000 ,2.000000000000000 ,55.000000000000000 ,36.000000000000000 ,349.000000000000000 ,0.000000000000000 ,34.000000000000000 ,-1.000000000000000 ,-122.000000000000000 ,1.000000000000000 ,1.000000000000000 ,1.000000000000000 ,0.000000000000000 ,100.000000000000000 ,1600.000000000000000 ,-0.011000000000000 ,-0.582000000000000 ,0.756000000000000 ,0.000000000000000 ,0.000000000000000 ,0.000000000000000 
4500.000000000000000 ,1.000000000000000 ,23.048043000000000 ,-1.481998000000000 ,62.560793000000000 ,106.879478000000000 ,-18.871869000000000 ,-91.859372000000000 ,1.381649000000000 ,120.019359800000000 ,35.787431900000000 ,0.170000000000000 ,12.320000000000000 ,0.170000000000000 ,0.763032000000000 ,-0.836116000000000 ,-0.024907000000000 ,-0.242680000000000 ,-0.348867000000000 ,-8.283906000000000 ,5.000000000000000 ,3.890000000000000 ,10.020000000000000 ,3.000000000000000 ,2229.000000000000000 ,4.000000000000000 ,2.000000000000000 ,55.000000000000000 ,37.000000000000000 ,49.000000000000000 ,0.000000000000000 ,34.000000000000000 ,-1.000000000000000 ,-122.000000000000000 ,1.000000000000000 ,1.000000000000000 ,1.000000000000000 ,0.000000000000000 ,0.000000000000000 ,2300.000000000000000 ,-0.332000000000000 ,0.125000000000000 ,0.657000000000000 ,0.000000000000000 ,0.000000000000000 ,0.000000000000000 
4640.000000000000000 ,1.000000000000000 ,72.243608000000000 ,-63.493040000000000 ,13.591495000000000 ,106.879478000000000 ,-76.751906000000000 ,14.136011000000000 ,8.199640000000000 ,120.019373000000000 ,35.787427700000000 ,0.000000000000000 ,11.580000000000000 ,0.000000000000000 ,1.546163000000000 ,-1.925876000000000 ,-0.006615000000000 ,0.901982000000000 ,-0.089688000000000 ,-9.844147000000000 ,5.000000000000000 ,3.890000000000000 ,10.020000000000000 ,3.000000000000000 ,2229.000000000000000 ,4.000000000000000 ,2.000000000000000 ,55.000000000000000 ,37.000000000000000 ,749.000000000000000 ,0.000000000000000 ,34.000000000000000 ,-1.000000000000000 ,-122.000000000000000 ,1.000000000000000 ,1.000000000000000 ,1.000000000000000 ,0.000000000000000 ,100.000000000000000 ,3000.000000000000000 ,0.428000000000000 ,1.217000000000000 ,0.651000000000000 ,0.000000000000000 ,0.000000000000000 ,0.000000000000000 
4780.000000000000000 ,1.000000000000000 ,5.898072000000000 ,-0.088513000000000 ,57.098920000000000 ,106.879478000000000 ,3.990982000000000 ,-17.407012000000000 ,5.168684000000000 ,120.019375600000000 ,35.787420600000000 ,0.030000000000000 ,10.510000000000000 ,0.030000000000000 ,2.123249000000000 ,-2.920509000000000 ,0.070666000000000 ,0.997635000000000 ,-1.710839000000000 ,-9.266059000000000 ,5.000000000000000 ,3.890000000000000 ,10.020000000000000 ,3.000000000000000 ,2229.000000000000000 ,4.000000000000000 ,2.000000000000000 ,55.000000000000000 ,38.000000000000000 ,449.000000000000000 ,0.000000000000000 ,34.000000000000000 ,-1.000000000000000 ,-122.000000000000000 ,1.000000000000000 ,1.000000000000000 ,1.000000000000000 ,0.000000000000000 ,0.000000000000000 ,3700.000000000000000 ,0.259000000000000 ,-0.707000000000000 ,0.815000000000000 ,0.000000000000000 ,0.000000000000000 ,0.000000000000000 
4920.000000000000000 ,1.000000000000000 ,21.344083000000000 ,-16.528370000000000 ,75.471574000000000 ,106.879478000000000 ,5.426925000000000 ,20.266249000000000 ,-34.256278000000000 ,120.019367200000000 ,35.787426000000000 ,-0.020000000000000 ,9.430000000000000 ,-0.020000000000000 ,2.914909000000000 ,-4.152269000000000 ,0.146349000000000 ,1.284555000000000 ,-0.992925000000000 ,-9.221687000000000 ,5.000000000000000 ,3.880000000000000 ,10.020000000000000 ,3.000000000000000 ,2229.000000000000000 ,4.000000000000000 ,2.000000000000000 ,55.000000000000000 ,39.000000000000000 ,149.000000000000000 ,0.000000000000000 ,34.000000000000000 ,-1.000000000000000 ,-122.000000000000000 ,1.000000000000000 ,1.000000000000000 ,1.000000000000000 ,0.000000000000000 ,100.000000000000000 ,300.000000000000000 ,1.067000000000000 ,-1.170000000000000 ,1.256000000000000 ,0.000000000000000 ,0.000000000000000 ,0.000000000000000 
5060.000000000000000 ,1.000000000000000 ,21.494260000000000 ,-5.362157000000000 ,68.257436000000000 ,106.879478000000000 ,8.620725000000000 ,-12.181489000000000 ,38.200287000000000 ,120.019358000000000 ,35.787427700000000 ,-0.160000000000000 ,9.700000000000000 ,-0.160000000000000 ,3.598693000000000 ,-5.345011000000000 ,0.311994000000000 ,0.057286000000000 ,-0.710898000000000 ,-10.478420000000000 ,5.000000000000000 ,3.880000000000000 ,10.020000000000000 ,3.000000000000000 ,2229.000000000000000 ,4.000000000000000 ,2.000000000000000 ,55.000000000000000 ,39.000000000000000 ,849.000000000000000 ,0.000000000000000 ,34.000000000000000 ,-1.000000000000000 ,-122.000000000000000 ,1.000000000000000 ,1.000000000000000 ,1.000000000000000 ,0.000000000000000 ,0.000000000000000 ,1000.000000000000000 ,-0.571000000000000 ,0.291000000000000 ,1.080000000000000 ,0.000000000000000 ,0.000000000000000 ,0.000000000000000 
5160.000000000000000 ,1.000000000000000 ,44.889313000000000 ,-6.934782000000000 ,87.758612000000000 ,106.879478000000000 ,-20.246556000000000 ,32.579498000000000 ,-26.483124000000000 ,120.019361200000000 ,35.787423500000000 ,-0.160000000000000 ,8.340000000000000 ,-0.160000000000000 ,4.077070000000000 ,-6.300714000000000 ,0.368926000000000 ,0.907633000000000 ,-2.339480000000000 ,-9.697599000000000 ,5.000000000000000 ,3.880000000000000 ,10.020000000000000 ,3.000000000000000 ,2229.000000000000000 ,4.000000000000000 ,2.000000000000000 ,55.000000000000000 ,40.000000000000000 ,349.000000000000000 ,0.000000000000000 ,34.000000000000000 ,-1.000000000000000 ,-122.000000000000000 ,1.000000000000000 ,1.000000000000000 ,1.000000000000000 ,0.000000000000000 ,100.000000000000000 ,1500.000000000000000 ,0.335000000000000 ,-0.527000000000000 ,1.762000000000000 ,0.000000000000000 ,0.000000000000000 ,0.000000000000000 
5300.000000000000000 ,1.000000000000000 ,21.387837000000000 ,-10.788613000000000 ,52.140739000000000 ,106.879478000000000 ,12.001598000000000 ,19.223372000000000 ,-114.745968000000000 ,120.019361900000000 ,35.787421100000000 ,-0.110000000000000 ,7.900000000000000 ,-0.110000000000000 ,4.644068000000000 ,-7.403437000000000 ,0.522365000000000 ,1.056407000000000 ,-2.054054000000000 ,-9.457458000000000 ,5.000000000000000 ,3.880000000000000 ,10.020000000000000 ,3.000000000000000 ,2229.000000000000000 ,4.000000000000000 ,2.000000000000000 ,55.000000000000000 ,41.000000000000000 ,49.000000000000000 ,0.000000000000000 ,34.000000000000000 ,-1.000000000000000 ,-122.000000000000000 ,1.000000000000000 ,1.000000000000000 ,1.000000000000000 ,0.000000000000000 ,0.000000000000000 ,2200.000000000000000 ,0.702000000000000 ,0.871000000000000 ,1.335000000000000 ,0.000000000000000 ,0.000000000000000 ,0.000000000000000 
5440.000000000000000 ,1.000000000000000 ,16.912628000000000 ,-18.705049000000000 ,28.042528000000000 ,106.879478000000000 ,7.201256000000000 ,8.078252000000000 ,-1.700144000000000 ,120.019369500000000 ,35.787422000000000 ,-0.090000000000000 ,7.580000000000000 ,-0.090000000000000 ,5.024195000000000 ,-8.425471000000000 ,0.582519000000000 ,1.092232000000000 ,-1.301296000000000 ,-9.147013000000000 ,5.000000000000000 ,3.880000000000000 ,10.020000000000000 ,3.000000000000000 ,2229.000000000000000 ,4.000000000000000 ,2.000000000000000 ,55.000000000000000 ,41.000000000000000 ,750.000000000000000 ,0.000000000000000 ,34.000000000000000 ,-1.000000000000000 ,-122.000000000000000 ,1.000000000000000 ,1.000000000000000 ,1.000000000000000 ,0.000000000000000 ,100.000000000000000 ,2900.000000000000000 ,0.214000000000000 ,0.577000000000000 ,1.359000000000000 ,0.000000000000000 ,0.000000000000000 ,0.000000000000000 
5580.000000000000000 ,1.000000000000000 ,19.036787000000000 ,-17.839427000000000 ,26.191723000000000 ,106.879478000000000 ,-1.882305000000000 ,1.472037000000000 ,-4.782079000000000 ,120.019379500000000 ,35.787420300000000 ,0.040000000000000 ,6.690000000000000 ,0.040000000000000 ,5.300916000000000 ,-9.393484000000000 ,0.676697000000000 ,1.197094000000000 ,-1.603418000000000 ,-9.602891000000000 ,5.000000000000000 ,3.880000000000000 ,10.020000000000000 ,3.000000000000000 ,2229.000000000000000 ,4.000000000000000 ,2.000000000000000 ,55.000000000000000 ,42.000000000000000 ,449.000000000000000 ,0.000000000000000 ,34.000000000000000 ,-1.000000000000000 ,-122.000000000000000 ,1.000000000000000 ,1.000000000000000 ,1.000000000000000 ,0.000000000000000 ,0.000000000000000 ,3600.000000000000000 ,0.142000000000000 ,0.580000000000000 ,1.417000000000000 ,0.000000000000000 ,0.000000000000000 ,0.000000000000000 
5720.000000000000000 ,1.000000000000000 ,17.866568000000000 ,-19.307810000000000 ,24.583100000000000 ,106.879478000000000 ,-1.788144000000000 ,-5.599485000000000 ,-1.947383000000000 ,120.019392300000000 ,35.787418300000000 ,-0.060000000000000 ,5.190000000000000 ,-0.060000000000000 ,5.390265000000000 ,-10.079979000000000 ,0.694435000000000 ,1.061597000000000 ,-1.875444000000000 ,-9.626457000000000 ,5.000000000000000 ,3.880000000000000 ,10.020000000000000 ,3.000000000000000 ,2229.000000000000000 ,4.000000000000000 ,2.000000000000000 ,55.000000000000000 ,43.000000000000000 ,149.000000000000000 ,0.000000000000000 ,34.000000000000000 ,-1.000000000000000 ,-122.000000000000000 ,1.000000000000000 ,1.000000000000000 ,1.000000000000000 ,0.000000000000000 ,100.000000000000000 ,300.000000000000000 ,-0.022000000000000 ,0.273000000000000 ,1.504000000000000 ,0.000000000000000 ,0.000000000000000 ,0.000000000000000 
5860.000000000000000 ,1.000000000000000 ,17.597756000000000 ,-20.344520000000000 ,22.769945000000000 ,106.879478000000000 ,-0.504982000000000 ,-0.475127000000000 ,3.218844000000000 ,120.019397300000000 ,35.787418300000000 ,0.000000000000000 ,3.370000000000000 ,0.000000000000000 ,5.308353000000000 ,-10.599244000000000 ,0.685776000000000 ,0.900405000000000 ,-1.782486000000000 ,-9.882283000000000 ,5.000000000000000 ,3.880000000000000 ,10.020000000000000 ,3.000000000000000 ,2229.000000000000000 ,4.000000000000000 ,2.000000000000000 ,55.000000000000000 ,43.000000000000000 ,849.000000000000000 ,0.000000000000000 ,34.000000000000000 ,-1.000000000000000 ,-122.000000000000000 ,1.000000000000000 ,1.000000000000000 ,1.000000000000000 ,0.000000000000000 ,0.000000000000000 ,1000.000000000000000 ,-0.016000000000000 ,0.144000000000000 ,1.639000000000000 ,0.000000000000000 ,0.000000000000000 ,0.000000000000000 
5920.000000000000000 ,1.000000000000000 ,17.986057000000000 ,-19.827687000000000 ,23.309181000000000 ,106.879478000000000 ,0.349012000000000 ,0.340591000000000 ,-5.129533000000000 ,120.019405400000000 ,35.787415500000000 ,-0.050000000000000 ,2.460000000000000 ,-0.050000000000000 ,5.251375000000000 ,-10.809415000000000 ,0.681565000000000 ,1.088849000000000 ,-1.968129000000000 ,-9.599376000000000 ,5.000000000000000 ,3.880000000000000 ,10.020000000000000 ,3.000000000000000 ,2229.000000000000000 ,4.000000000000000 ,2.000000000000000 ,55.000000000000000 ,44.000000000000000 ,149.000000000000000 ,0.000000000000000 ,34.000000000000000 ,-1.000000000000000 ,-122.000000000000000 ,1.000000000000000 ,1.000000000000000 ,1.000000000000000 ,0.000000000000000 ,100.000000000000000 ,1300.000000000000000 ,0.025000000000000 ,0.387000000000000 ,1.684000000000000 ,0.000000000000000 ,0.000000000000000 ,0.000000000000000 
6060.000000000000000 ,1.000000000000000 ,17.854307000000000 ,-20.014526000000000 ,22.299759000000000 ,106.879478000000000 ,-1.275295000000000 ,0.003734000000000 ,-3.386725000000000 ,120.019414900000000 ,35.787415300000000 ,-0.190000000000000 ,0.810000000000000 ,-0.190000000000000 ,4.991896000000000 ,-11.138915000000000 ,0.646192000000000 ,0.928263000000000 ,-1.643245000000000 ,-9.600441000000000 ,5.000000000000000 ,3.880000000000000 ,10.020000000000000 ,3.000000000000000 ,2229.000000000000000 ,4.000000000000000 ,2.000000000000000 ,55.000000000000000 ,44.000000000000000 ,849.000000000000000 ,0.000000000000000 ,34.000000000000000 ,-1.000000000000000 ,-122.000000000000000 ,1.000000000000000 ,1.000000000000000 ,1.000000000000000 ,0.000000000000000 ,0.000000000000000 ,2000.000000000000000 ,0.266000000000000 ,0.381000000000000 ,1.717000000000000 ,0.000000000000000 ,0.000000000000000 ,0.000000000000000 
6300.000000000000000 ,1.000000000000000 ,8.712187000000000 ,-6.425540000000000 ,3.459218000000000 ,106.879478000000000 ,-4.113798000000000 ,-13.733344000000000 ,-74.913237000000000 ,120.019428800000000 ,35.787415700000000 ,-0.030000000000000 ,-1.950000000000000 ,-0.030000000000000 ,4.415753000000000 ,-11.467818000000000 ,0.521523000000000 ,0.964676000000000 ,-1.406626000000000 ,-9.882412000000000 ,5.000000000000000 ,3.880000000000000 ,10.020000000000000 ,3.000000000000000 ,2229.000000000000000 ,4.000000000000000 ,2.000000000000000 ,55.000000000000000 ,46.000000000000000 ,49.000000000000000 ,0.000000000000000 ,34.000000000000000 ,-1.000000000000000 ,-122.000000000000000 ,1.000000000000000 ,1.000000000000000 ,1.000000000000000 ,0.000000000000000 ,0.000000000000000 ,3200.000000000000000 ,-0.153000000000000 ,0.593000000000000 ,1.655000000000000 ,0.000000000000000 ,0.000000000000000 ,0.000000000000000 
6440.000000000000000 ,1.000000000000000 ,15.371538000000000 ,-1.357520000000000 ,42.485699000000000 ,106.879478000000000 ,-5.915456000000000 ,4.614332000000000 ,-30.811027000000000 ,120.019434100000000 ,35.787415700000000 ,-0.020000000000000 ,-3.170000000000000 ,-0.020000000000000 ,4.094885000000000 ,-11.416408000000000 ,0.444017000000000 ,0.639887000000000 ,-1.880847000000000 ,-9.653399000000000 ,5.000000000000000 ,3.880000000000000 ,10.020000000000000 ,3.000000000000000 ,2229.000000000000000 ,4.000000000000000 ,2.000000000000000 ,55.000000000000000 ,46.000000000000000 ,750.000000000000000 ,0.000000000000000 ,34.000000000000000 ,-1.000000000000000 ,-122.000000000000000 ,1.000000000000000 ,1.000000000000000 ,1.000000000000000 ,0.000000000000000 ,100.000000000000000 ,3900.000000000000000 ,0.421000000000000 ,0.235000000000000 ,1.893000000000000 ,0.000000000000000 ,0.000000000000000 ,0.000000000000000 
18120.000000000000000 ,1.000000000000000 ,38.469933000000000 ,27.175600000000000 ,11.761498000000000 ,58.665409000000000 ,101.073255000000000 ,54.129397000000000 ,46.666241000000000 ,120.019381200000000 ,35.787443600000000 ,-0.020000000000000 ,9.340000000000000 ,-0.020000000000000 ,0.454263000000000 ,7.662900000000000 ,-0.080517000000000 ,-3.334607000000000 ,3.168045000000000 ,-12.304107000000000 ,6.000000000000000 ,3.160000000000000 ,9.620000000000000 ,3.000000000000000 ,2229.000000000000000 ,4.000000000000000 ,2.000000000000000 ,56.000000000000000 ,47.000000000000000 ,535.000000000000000 ,0.000000000000000 ,36.000000000000000 ,-1.000000000000000 ,-122.000000000000000 ,1.000000000000000 ,1.000000000000000 ,1.000000000000000 ,0.000000000000000 ,100.000000000000000 ,100.000000000000000 ,0.078000000000000 ,0.333000000000000 ,1.605000000000000 ,0.000000000000000 ,0.000000000000000 ,0.000000000000000 
18400.000000000000000 ,1.000000000000000 ,5.156572000000000 ,-61.370418000000000 ,234.168890000000000 ,58.665409000000000 ,-67.534182000000000 ,148.472330000000000 ,-35.250052000000000 ,120.019384100000000 ,35.787445700000000 ,-0.660000000000000 ,13.160000000000000 ,-0.660000000000000 ,1.080380000000000 ,6.893564000000000 ,0.210754000000000 ,1.295454000000000 ,1.251099000000000 ,-9.119246000000000 ,6.000000000000000 ,3.160000000000000 ,9.620000000000000 ,3.000000000000000 ,2229.000000000000000 ,4.000000000000000 ,2.000000000000000 ,56.000000000000000 ,48.000000000000000 ,935.000000000000000 ,0.000000000000000 ,37.000000000000000 ,-1.000000000000000 ,-122.000000000000000 ,1.000000000000000 ,1.000000000000000 ,1.000000000000000 ,0.000000000000000 ,100.000000000000000 ,1500.000000000000000 ,0.089000000000000 ,0.421000000000000 ,1.204000000000000 ,0.000000000000000 ,0.000000000000000 ,0.000000000000000 
18500.000000000000000 ,1.000000000000000 ,-6.394801000000000 ,21.664969000000000 ,257.246288000000000 ,58.665409000000000 ,7.658024000000000 ,71.289405000000000 ,101.183687000000000 ,120.019385300000000 ,35.787446400000000 ,-0.430000000000000 ,12.950000000000000 ,-0.430000000000000 ,1.351482000000000 ,6.902974000000000 ,0.196114000000000 ,-0.112801000000000 ,1.971192000000000 ,-10.943527000000000 ,6.000000000000000 ,3.160000000000000 ,9.620000000000000 ,3.000000000000000 ,2229.000000000000000 ,4.000000000000000 ,2.000000000000000 ,56.000000000000000 ,49.000000000000000 ,435.000000000000000 ,0.000000000000000 ,37.000000000000000 ,-1.000000000000000 ,-122.000000000000000 ,1.000000000000000 ,1.000000000000000 ,1.000000000000000 ,0.000000000000000 ,0.000000000000000 ,2000.000000000000000 ,0.572000000000000 ,0.190000000000000 ,1.550000000000000 ,0.000000000000000 ,0.000000000000000 ,0.000000000000000 
19300.000000000000000 ,1.000000000000000 ,14.215844000000000 ,24.099728000000000 ,349.820157000000000 ,58.665409000000000 ,111.268875000000000 ,4.403827000000000 ,53.861948000000000 ,120.019381400000000 ,35.787446100000000 ,-0.470000000000000 ,19.380000000000000 ,-0.470000000000000 ,3.291746000000000 ,8.947051000000000 ,0.375917000000000 ,-0.321683000000000 ,1.229845000000000 ,-9.923845000000000 ,6.000000000000000 ,3.160000000000000 ,9.620000000000000 ,3.000000000000000 ,2229.000000000000000 ,4.000000000000000 ,2.000000000000000 ,56.000000000000000 ,53.000000000000000 ,435.000000000000000 ,0.000000000000000 ,37.000000000000000 ,-1.000000000000000 ,-122.000000000000000 ,1.000000000000000 ,1.000000000000000 ,1.000000000000000 ,0.000000000000000 ,0.000000000000000 ,2000.000000000000000 ,-0.085000000000000 ,0.133000000000000 ,1.533000000000000 ,0.000000000000000 ,0.000000000000000 ,0.000000000000000 
20000.000000000000000 ,1.000000000000000 ,66.872664000000000 ,153.828343000000000 ,132.606186000000000 ,58.665409000000000 ,56.575370000000000 ,52.174654000000000 ,-93.185381000000000 ,120.019388300000000 ,35.787442500000000 ,-0.420000000000000 ,21.870000000000000 ,-0.420000000000000 ,4.908419000000000 ,9.248590000000000 ,0.668118000000000 ,1.515867000000000 ,-0.003399000000000 ,-9.539572000000000 ,6.000000000000000 ,3.160000000000000 ,9.620000000000000 ,3.000000000000000 ,2229.000000000000000 ,4.000000000000000 ,2.000000000000000 ,56.000000000000000 ,56.000000000000000 ,935.000000000000000 ,0.000000000000000 ,37.000000000000000 ,-1.000000000000000 ,-122.000000000000000 ,1.000000000000000 ,1.000000000000000 ,1.000000000000000 ,0.000000000000000 ,100.000000000000000 ,1500.000000000000000 ,-0.160000000000000 ,0.292000000000000 ,1.455000000000000 ,0.000000000000000 ,0.000000000000000 ,0.000000000000000 
20100.000000000000000 ,1.000000000000000 ,32.996238000000000 ,-75.991191000000000 ,222.419953000000000 ,58.665409000000000 ,-57.636455000000000 ,105.091300000000000 ,-82.298277000000000 ,120.019385100000000 ,35.787444200000000 ,-0.430000000000000 ,23.450000000000000 ,-0.430000000000000 ,5.511599000000000 ,9.269918000000000 ,0.756282000000000 ,0.911980000000000 ,2.072831000000000 ,-10.545507000000000 ,6.000000000000000 ,3.160000000000000 ,9.620000000000000 ,3.000000000000000 ,2229.000000000000000 ,4.000000000000000 ,2.000000000000000 ,56.000000000000000 ,57.000000000000000 ,435.000000000000000 ,0.000000000000000 ,37.000000000000000 ,-1.000000000000000 ,-122.000000000000000 ,1.000000000000000 ,1.000000000000000 ,1.000000000000000 ,0.000000000000000 ,0.000000000000000 ,2000.000000000000000 ,0.162000000000000 ,-0.068000000000000 ,1.370000000000000 ,0.000000000000000 ,0.000000000000000 ,0.000000000000000 
20340.000000000000000 ,1.000000000000000 ,1.292554000000000 ,21.095986000000000 ,283.574141000000000 ,58.665409000000000 ,35.712940000000000 ,-1.816698000000000 ,57.961635000000000 ,120.019391500000000 ,35.787440400000000 ,-0.440000000000000 ,21.170000000000000 ,-0.440000000000000 ,6.295059000000000 ,9.631124000000000 ,0.672147000000000 ,0.652125000000000 ,2.454364000000000 ,-9.595081000000000 ,6.000000000000000 ,3.160000000000000 ,9.620000000000000 ,3.000000000000000 ,2229.000000000000000 ,4.000000000000000 ,2.000000000000000 ,56.000000000000000 ,58.000000000000000 ,635.000000000000000 ,0.000000000000000 ,37.000000000000000 ,-1.000000000000000 ,-122.000000000000000 ,1.000000000000000 ,1.000000000000000 ,1.000000000000000 ,0.000000000000000 ,0.000000000000000 ,3200.000000000000000 ,-0.005000000000000 ,0.258000000000000 ,1.609000000000000 ,0.000000000000000 ,0.000000000000000 ,0.000000000000000 
21140.000000000000000 ,1.000000000000000 ,-3.755357000000000 ,9.913651000000000 ,272.078186000000000 ,58.665409000000000 ,-0.544530000000000 ,-0.294641000000000 ,-2.424878000000000 ,120.019388800000000 ,35.787436100000000 ,-0.730000000000000 ,17.580000000000000 ,-0.730000000000000 ,8.284456000000000 ,9.071208000000000 ,0.665536000000000 ,1.604246000000000 ,1.545552000000000 ,-9.484144000000000 ,6.000000000000000 ,3.160000000000000 ,9.620000000000000 ,3.000000000000000 ,2229.000000000000000 ,4.000000000000000 ,2.000000000000000 ,57.000000000000000 ,2.000000000000000 ,635.000000000000000 ,0.000000000000000 ,37.000000000000000 ,-1.000000000000000 ,-122.000000000000000 ,1.000000000000000 ,1.000000000000000 ,1.000000000000000 ,0.000000000000000 ,0.000000000000000 ,3100.000000000000000 ,-0.472000000000000 ,-0.122000000000000 ,1.924000000000000 ,0.000000000000000 ,0.000000000000000 ,0.000000000000000 
22500.000000000000000 ,1.000000000000000 ,-7.478088000000000 ,8.780206000000000 ,258.166993000000000 ,58.665409000000000 ,0.440867000000000 ,1.172627000000000 ,-1.139501000000000 ,120.019378700000000 ,35.787424600000000 ,-0.760000000000000 ,12.980000000000000 ,-0.760000000000000 ,8.434063000000000 ,3.611043000000000 ,0.362758000000000 ,1.437333000000000 ,0.206659000000000 ,-9.639657000000000 ,6.000000000000000 ,3.160000000000000 ,9.630000000000000 ,3.000000000000000 ,2229.000000000000000 ,4.000000000000000 ,2.000000000000000 ,57.000000000000000 ,9.000000000000000 ,435.000000000000000 ,0.000000000000000 ,37.000000000000000 ,-1.000000000000000 ,-122.000000000000000 ,1.000000000000000 ,1.000000000000000 ,1.000000000000000 ,0.000000000000000 ,0.000000000000000 ,1800.000000000000000 ,0.107000000000000 ,0.361000000000000 ,1.896000000000000 ,0.000000000000000 ,0.000000000000000 ,0.000000000000000 
23300.000000000000000 ,1.000000000000000 ,21.606964000000000 ,-8.125675000000000 ,181.783017000000000 ,58.665409000000000 ,-89.184803000000000 ,-16.660013000000000 ,167.335223000000000 ,120.019380500000000 ,35.787430900000000 ,-0.760000000000000 ,14.310000000000000 ,-0.760000000000000 ,7.444229000000000 ,1.041305000000000 ,0.409460000000000 ,-0.481267000000000 ,-0.033335000000000 ,-10.866616000000000 ,6.000000000000000 ,3.160000000000000 ,9.630000000000000 ,3.000000000000000 ,2229.000000000000000 ,4.000000000000000 ,2.000000000000000 ,57.000000000000000 ,13.000000000000000 ,435.000000000000000 ,0.000000000000000 ,37.000000000000000 ,-1.000000000000000 ,-122.000000000000000 ,1.000000000000000 ,1.000000000000000 ,1.000000000000000 ,0.000000000000000 ,0.000000000000000 ,1800.000000000000000 ,0.407000000000000 ,-0.059000000000000 ,2.034000000000000 ,0.000000000000000 ,0.000000000000000 ,0.000000000000000 
24100.000000000000000 ,1.000000000000000 ,-5.121059000000000 ,0.441179000000000 ,264.390661000000000 ,58.665409000000000 ,-17.173675000000000 ,-28.811216000000000 ,-2.825054000000000 ,120.019390300000000 ,35.787458300000000 ,-0.680000000000000 ,16.060000000000000 ,-0.680000000000000 ,5.679335000000000 ,-0.996228000000000 ,0.484437000000000 ,0.486268000000000 ,-2.088706000000000 ,-10.777991000000000 ,6.000000000000000 ,3.160000000000000 ,9.630000000000000 ,3.000000000000000 ,2229.000000000000000 ,4.000000000000000 ,2.000000000000000 ,57.000000000000000 ,17.000000000000000 ,435.000000000000000 ,0.000000000000000 ,37.000000000000000 ,-1.000000000000000 ,-122.000000000000000 ,1.000000000000000 ,1.000000000000000 ,1.000000000000000 ,0.000000000000000 ,0.000000000000000 ,1800.000000000000000 ,1.030000000000000 ,0.359000000000000 ,1.727000000000000 ,0.000000000000000 ,0.000000000000000 ,0.000000000000000 
24900.000000000000000 ,1.000000000000000 ,6.093256000000000 ,3.229151000000000 ,264.685916000000000 ,31.968220000000000 ,-41.790733000000000 ,-20.844818000000000 ,4.769088000000000 ,120.019390400000000 ,35.787495200000000 ,-0.540000000000000 ,10.490000000000000 ,-0.540000000000000 ,3.881037000000000 ,-2.303106000000000 ,0.387595000000000 ,-0.038675000000000 ,-0.052793000000000 ,-8.523931000000000 ,6.000000000000000 ,3.160000000000000 ,9.630000000000000 ,3.000000000000000 ,2229.000000000000000 ,4.000000000000000 ,2.000000000000000 ,57.000000000000000 ,21.000000000000000 ,435.000000000000000 ,0.000000000000000 ,37.000000000000000 ,-1.000000000000000 ,-122.000000000000000 ,1.000000000000000 ,1.000000000000000 ,1.000000000000000 ,0.000000000000000 ,0.000000000000000 ,1700.000000000000000 ,1.466000000000000 ,-0.186000000000000 ,1.800000000000000 ,0.000000000000000 ,0.000000000000000 ,0.000000000000000 
25140.000000000000000 ,1.000000000000000 ,10.092434000000000 ,2.412552000000000 ,260.288924000000000 ,2.850370000000000 ,5.598343000000000 ,-9.524105000000000 ,-12.215340000000000 ,120.019382500000000 ,35.787507900000000 ,-0.580000000000000 ,11.890000000000000 ,-0.580000000000000 ,3.110694000000000 ,-2.701806000000000 ,0.417655000000000 ,0.301301000000000 ,-0.538940000000000 ,-9.429649000000000 ,6.000000000000000 ,3.160000000000000 ,9.630000000000000 ,3.000000000000000 ,2229.000000000000000 ,4.000000000000000 ,2.000000000000000 ,57.000000000000000 ,22.000000000000000 ,635.000000000000000 ,0.000000000000000 ,37.000000000000000 ,-1.000000000000000 ,-122.000000000000000 ,1.000000000000000 ,1.000000000000000 ,1.000000000000000 ,0.000000000000000 ,0.000000000000000 ,2900.000000000000000 ,1.143000000000000 ,0.209000000000000 ,1.558000000000000 ,0.000000000000000 ,0.000000000000000 ,0.000000000000000 
25240.000000000000000 ,1.000000000000000 ,8.426706000000000 ,1.418649000000000 ,266.304535000000000 ,2.850370000000000 ,16.288235000000000 ,9.787282000000000 ,17.155819000000000 ,120.019381800000000 ,35.787512000000000 ,-0.360000000000000 ,11.240000000000000 ,-0.360000000000000 ,3.007096000000000 ,-2.817053000000000 ,0.435770000000000 ,0.573234000000000 ,-0.849853000000000 ,-10.255239000000000 ,6.000000000000000 ,3.160000000000000 ,9.630000000000000 ,3.000000000000000 ,2229.000000000000000 ,4.000000000000000 ,2.000000000000000 ,57.000000000000000 ,23.000000000000000 ,135.000000000000000 ,0.000000000000000 ,37.000000000000000 ,-1.000000000000000 ,-122.000000000000000 ,1.000000000000000 ,1.000000000000000 ,1.000000000000000 ,0.000000000000000 ,100.000000000000000 ,3400.000000000000000 ,1.011000000000000 ,-0.199000000000000 ,1.564000000000000 ,0.000000000000000 ,0.000000000000000 ,0.000000000000000 
25340.000000000000000 ,1.000000000000000 ,9.542189000000000 ,1.832137000000000 ,263.416483000000000 ,2.850370000000000 ,20.006083000000000 ,-1.609241000000000 ,-16.559846000000000 ,120.019379000000000 ,35.787518700000000 ,-0.600000000000000 ,11.210000000000000 ,-0.600000000000000 ,2.540942000000000 ,-2.918283000000000 ,0.372423000000000 ,-0.414298000000000 ,-0.521805000000000 ,-9.906507000000000 ,6.000000000000000 ,3.160000000000000 ,9.630000000000000 ,3.000000000000000 ,2229.000000000000000 ,4.000000000000000 ,2.000000000000000 ,57.000000000000000 ,23.000000000000000 ,635.000000000000000 ,0.000000000000000 ,37.000000000000000 ,-1.000000000000000 ,-122.000000000000000 ,1.000000000000000 ,1.000000000000000 ,1.000000000000000 ,0.000000000000000 ,0.000000000000000 ,3900.000000000000000 ,1.191000000000000 ,0.124000000000000 ,1.580000000000000 ,0.000000000000000 ,0.000000000000000 ,0.000000000000000 
25440.000000000000000 ,1.000000000000000 ,11.027728000000000 ,1.152321000000000 ,264.524710000000000 ,2.850370000000000 ,3.222484000000000 ,-1.789116000000000 ,15.192809000000000 ,120.019375900000000 ,35.787523000000000 ,-0.310000000000000 ,11.800000000000000 ,-0.310000000000000 ,2.398184000000000 ,-3.005179000000000 ,0.456490000000000 ,0.714957000000000 ,-0.970961000000000 ,-10.372832000000000 ,6.000000000000000 ,3.160000000000000 ,9.630000000000000 ,3.000000000000000 ,2229.000000000000000 ,4.000000000000000 ,2.000000000000000 ,57.000000000000000 ,24.000000000000000 ,135.000000000000000 ,0.000000000000000 ,37.000000000000000 ,-1.000000000000000 ,-122.000000000000000 ,1.000000000000000 ,1.000000000000000 ,1.000000000000000 ,0.000000000000000 ,100.000000000000000 ,400.000000000000000 ,1.273000000000000 ,-0.097000000000000 ,1.486000000000000 ,0.000000000000000 ,0.000000000000000 ,0.000000000000000 
25540.000000000000000 ,1.000000000000000 ,9.015494000000000 ,2.305754000000000 ,260.345049000000000 ,2.850370000000000 ,5.890042000000000 ,-4.732703000000000 ,-18.478033000000000 ,120.019372800000000 ,35.787533100000000 ,-0.500000000000000 ,11.780000000000000 ,-0.500000000000000 ,2.001391000000000 ,-3.066741000000000 ,0.441471000000000 ,-0.086992000000000 ,-0.373558000000000 ,-9.994593000000000 ,6.000000000000000 ,3.160000000000000 ,9.630000000000000 ,3.000000000000000 ,2229.000000000000000 ,4.000000000000000 ,2.000000000000000 ,57.000000000000000 ,24.000000000000000 ,635.000000000000000 ,0.000000000000000 ,37.000000000000000 ,-1.000000000000000 ,-122.000000000000000 ,1.000000000000000 ,1.000000000000000 ,1.000000000000000 ,0.000000000000000 ,0.000000000000000 ,900.000000000000000 ,1.302000000000000 ,-0.383000000000000 ,1.570000000000000 ,0.000000000000000 ,0.000000000000000 ,0.000000000000000 
25640.000000000000000 ,1.000000000000000 ,11.703658000000000 ,2.138641000000000 ,267.168719000000000 ,355.854187000000000 ,11.698174000000000 ,-8.024177000000000 ,19.483119000000000 ,120.019370400000000 ,35.787537900000000 ,-0.420000000000000 ,12.310000000000000 ,-0.420000000000000 ,1.978286000000000 ,-3.068829000000000 ,0.430325000000000 ,-0.395938000000000 ,-1.054815000000000 ,-10.179445000000000 ,6.000000000000000 ,3.160000000000000 ,9.630000000000000 ,3.000000000000000 ,2229.000000000000000 ,4.000000000000000 ,2.000000000000000 ,57.000000000000000 ,25.000000000000000 ,135.000000000000000 ,0.000000000000000 ,37.000000000000000 ,-1.000000000000000 ,-122.000000000000000 ,1.000000000000000 ,1.000000000000000 ,1.000000000000000 ,0.000000000000000 ,100.000000000000000 ,1400.000000000000000 ,1.166000000000000 ,0.257000000000000 ,1.459000000000000 ,0.000000000000000 ,0.000000000000000 ,0.000000000000000 
25740.000000000000000 ,1.000000000000000 ,4.934227000000000 ,-0.995657000000000 ,259.587491000000000 ,355.173920000000000 ,-4.319401000000000 ,-13.471185000000000 ,-26.542643000000000 ,120.019372800000000 ,35.787544600000000 ,-0.300000000000000 ,12.220000000000000 ,-0.300000000000000 ,1.327262000000000 ,-3.108299000000000 ,0.481360000000000 ,-0.265555000000000 ,-0.840935000000000 ,-10.310556000000000 ,6.000000000000000 ,3.160000000000000 ,9.630000000000000 ,3.000000000000000 ,2229.000000000000000 ,4.000000000000000 ,2.000000000000000 ,57.000000000000000 ,25.000000000000000 ,635.000000000000000 ,0.000000000000000 ,37.000000000000000 ,-1.000000000000000 ,-122.000000000000000 ,1.000000000000000 ,1.000000000000000 ,1.000000000000000 ,0.000000000000000 ,0.000000000000000 ,1900.000000000000000 ,1.524000000000000 ,-0.148000000000000 ,1.521000000000000 ,0.000000000000000 ,0.000000000000000 ,0.000000000000000 
25840.000000000000000 ,1.000000000000000 ,10.774861000000000 ,0.466924000000000 ,264.700013000000000 ,359.715637000000000 ,11.228100000000000 ,-6.581048000000000 ,18.701379000000000 ,120.019372800000000 ,35.787551900000000 ,-0.280000000000000 ,13.920000000000000 ,-0.280000000000000 ,1.324722000000000 ,-3.119239000000000 ,0.461644000000000 ,-0.058966000000000 ,-1.429436000000000 ,-9.493061000000000 ,6.000000000000000 ,3.160000000000000 ,9.630000000000000 ,3.000000000000000 ,2229.000000000000000 ,4.000000000000000 ,2.000000000000000 ,57.000000000000000 ,26.000000000000000 ,115.000000000000000 ,0.000000000000000 ,37.000000000000000 ,-1.000000000000000 ,-122.000000000000000 ,1.000000000000000 ,1.000000000000000 ,1.000000000000000 ,0.000000000000000 ,100.000000000000000 ,2400.000000000000000 ,1.425000000000000 ,0.250000000000000 ,1.266000000000000 ,0.000000000000000 ,0.000000000000000 ,0.000000000000000 
25940.000000000000000 ,1.000000000000000 ,4.918256000000000 ,1.181972000000000 ,258.910132000000000 ,359.715637000000000 ,17.025226000000000 ,13.781063000000000 ,-6.355058000000000 ,120.019374000000000 ,35.787559300000000 ,-0.400000000000000 ,13.870000000000000 ,-0.400000000000000 ,0.849499000000000 ,-3.059741000000000 ,0.422646000000000 ,0.364324000000000 ,-0.624946000000000 ,-9.284634000000000 ,6.000000000000000 ,3.160000000000000 ,9.630000000000000 ,3.000000000000000 ,2229.000000000000000 ,4.000000000000000 ,2.000000000000000 ,57.000000000000000 ,26.000000000000000 ,635.000000000000000 ,0.000000000000000 ,37.000000000000000 ,-1.000000000000000 ,-122.000000000000000 ,1.000000000000000 ,1.000000000000000 ,1.000000000000000 ,0.000000000000000 ,0.000000000000000 ,2900.000000000000000 ,1.147000000000000 ,-0.178000000000000 ,1.366000000000000 ,0.000000000000000 ,0.000000000000000 ,0.000000000000000 
26040.000000000000000 ,1.000000000000000 ,7.299202000000000 ,-0.279098000000000 ,269.282457000000000 ,359.715637000000000 ,16.326417000000000 ,-3.043674000000000 ,10.804213000000000 ,120.019372300000000 ,35.787565000000000 ,-0.420000000000000 ,14.630000000000000 ,-0.420000000000000 ,0.901386000000000 ,-3.082355000000000 ,0.407505000000000 ,-0.124526000000000 ,-1.159181000000000 ,-9.783278000000000 ,6.000000000000000 ,3.160000000000000 ,9.630000000000000 ,3.000000000000000 ,2229.000000000000000 ,4.000000000000000 ,2.000000000000000 ,57.000000000000000 ,27.000000000000000 ,135.000000000000000 ,0.000000000000000 ,37.000000000000000 ,-1.000000000000000 ,-122.000000000000000 ,1.000000000000000 ,1.000000000000000 ,1.000000000000000 ,0.000000000000000 ,100.000000000000000 ,3400.000000000000000 ,1.003000000000000 ,0.414000000000000 ,1.346000000000000 ,0.000000000000000 ,0.000000000000000 ,0.000000000000000 
26140.000000000000000 ,1.000000000000000 ,10.099823000000000 ,-0.477342000000000 ,262.335829000000000 ,359.715637000000000 ,10.021928000000000 ,-7.405316000000000 ,-16.573650000000000 ,120.019372400000000 ,35.787573700000000 ,-0.280000000000000 ,14.990000000000000 ,-0.280000000000000 ,0.486839000000000 ,-3.082207000000000 ,0.388979000000000 ,-0.139977000000000 ,-0.459799000000000 ,-9.059584000000000 ,6.000000000000000 ,3.160000000000000 ,9.630000000000000 ,3.000000000000000 ,2229.000000000000000 ,4.000000000000000 ,2.000000000000000 ,57.000000000000000 ,27.000000000000000 ,635.000000000000000 ,0.000000000000000 ,37.000000000000000 ,-1.000000000000000 ,-122.000000000000000 ,1.000000000000000 ,1.000000000000000 ,1.000000000000000 ,0.000000000000000 ,0.000000000000000 ,3900.000000000000000 ,0.977000000000000 ,-0.002000000000000 ,1.173000000000000 ,0.000000000000000 ,0.000000000000000 ,0.000000000000000 
26380.000000000000000 ,1.000000000000000 ,4.010530000000000 ,-3.680652000000000 ,252.526919000000000 ,359.715637000000000 ,-3.461936000000000 ,0.497959000000000 ,8.662568000000000 ,120.019370500000000 ,35.787592000000000 ,-0.360000000000000 ,16.620000000000000 ,-0.360000000000000 ,0.006786000000000 ,-2.894389000000000 ,0.180786000000000 ,0.653885000000000 ,0.329426000000000 ,-9.281061000000000 ,6.000000000000000 ,3.160000000000000 ,9.630000000000000 ,3.000000000000000 ,2229.000000000000000 ,4.000000000000000 ,2.000000000000000 ,57.000000000000000 ,28.000000000000000 ,834.000000000000000 ,0.000000000000000 ,37.000000000000000 ,-1.000000000000000 ,-122.000000000000000 ,1.000000000000000 ,1.000000000000000 ,1.000000000000000 ,0.000000000000000 ,0.000000000000000 ,1000.000000000000000 ,1.097000000000000 ,0.138000000000000 ,1.228000000000000 ,0.000000000000000 ,0.000000000000000 ,0.000000000000000 
26480.000000000000000 ,1.000000000000000 ,4.168146000000000 ,-0.918513000000000 ,256.498317000000000 ,359.715637000000000 ,-12.084912000000000 ,-6.131124000000000 ,-21.458653000000000 ,120.019370000000000 ,35.787597400000000 ,-0.130000000000000 ,16.870000000000000 ,-0.130000000000000 ,-0.303354000000000 ,-2.949942000000000 ,0.160822000000000 ,-1.421510000000000 ,0.269282000000000 ,-10.272007000000000 ,6.000000000000000 ,3.160000000000000 ,9.630000000000000 ,3.000000000000000 ,2229.000000000000000 ,4.000000000000000 ,2.000000000000000 ,57.000000000000000 ,29.000000000000000 ,335.000000000000000 ,0.000000000000000 ,37.000000000000000 ,-1.000000000000000 ,-122.000000000000000 ,1.000000000000000 ,1.000000000000000 ,1.000000000000000 ,0.000000000000000 ,100.000000000000000 ,1500.000000000000000 ,1.538000000000000 ,0.373000000000000 ,1.457000000000000 ,0.000000000000000 ,0.000000000000000 ,0.000000000000000 
26580.000000000000000 ,1.000000000000000 ,3.519908000000000 ,-2.698896000000000 ,251.319337000000000 ,359.715637000000000 ,-16.265530000000000 ,4.469773000000000 ,23.001295000000000 ,120.019369900000000 ,35.787606600000000 ,-0.300000000000000 ,17.320000000000000 ,-0.300000000000000 ,-0.404628000000000 ,-2.822889000000000 ,0.174357000000000 ,0.943929000000000 ,0.612907000000000 ,-9.631254000000000 ,6.000000000000000 ,3.160000000000000 ,9.630000000000000 ,3.000000000000000 ,2229.000000000000000 ,4.000000000000000 ,2.000000000000000 ,57.000000000000000 ,29.000000000000000 ,835.000000000000000 ,0.000000000000000 ,37.000000000000000 ,-1.000000000000000 ,-122.000000000000000 ,1.000000000000000 ,1.000000000000000 ,1.000000000000000 ,0.000000000000000 ,0.000000000000000 ,2000.000000000000000 ,1.263000000000000 ,0.215000000000000 ,1.117000000000000 ,0.000000000000000 ,0.000000000000000 ,0.000000000000000 
26680.000000000000000 ,1.000000000000000 ,2.152822000000000 ,-1.058273000000000 ,253.764979000000000 ,359.715637000000000 ,-16.475399000000000 ,7.329368000000000 ,-31.465677000000000 ,120.019371000000000 ,35.787610700000000 ,-0.260000000000000 ,16.640000000000000 ,-0.260000000000000 ,-0.880869000000000 ,-2.883679000000000 ,0.168240000000000 ,-0.965483000000000 ,0.375134000000000 ,-9.577432000000000 ,6.000000000000000 ,3.160000000000000 ,9.630000000000000 ,3.000000000000000 ,2229.000000000000000 ,4.000000000000000 ,2.000000000000000 ,57.000000000000000 ,30.000000000000000 ,334.000000000000000 ,0.000000000000000 ,37.000000000000000 ,-1.000000000000000 ,-122.000000000000000 ,1.000000000000000 ,1.000000000000000 ,1.000000000000000 ,0.000000000000000 ,100.000000000000000 ,2500.000000000000000 ,1.316000000000000 ,-0.354000000000000 ,1.403000000000000 ,0.000000000000000 ,0.000000000000000 ,0.000000000000000 
26780.000000000000000 ,1.000000000000000 ,1.646124000000000 ,-1.461109000000000 ,251.333565000000000 ,359.715637000000000 ,-9.492787000000000 ,-7.996171000000000 ,30.255557000000000 ,120.019367200000000 ,35.787618500000000 ,-0.380000000000000 ,16.590000000000000 ,-0.380000000000000 ,-0.737735000000000 ,-2.714503000000000 ,0.149145000000000 ,0.370802000000000 ,0.278360000000000 ,-9.605276000000000 ,6.000000000000000 ,3.160000000000000 ,9.630000000000000 ,3.000000000000000 ,2229.000000000000000 ,4.000000000000000 ,2.000000000000000 ,57.000000000000000 ,30.000000000000000 ,834.000000000000000 ,0.000000000000000 ,37.000000000000000 ,-1.000000000000000 ,-122.000000000000000 ,1.000000000000000 ,1.000000000000000 ,1.000000000000000 ,0.000000000000000 ,0.000000000000000 ,3000.000000000000000 ,1.447000000000000 ,0.191000000000000 ,1.186000000000000 ,0.000000000000000 ,0.000000000000000 ,0.000000000000000 
26880.000000000000000 ,1.000000000000000 ,6.138422000000000 ,-3.088169000000000 ,253.322814000000000 ,359.715637000000000 ,-9.143916000000000 ,18.402330000000000 ,-24.891153000000000 ,120.019369400000000 ,35.787621600000000 ,-0.120000000000000 ,15.320000000000000 ,-0.120000000000000 ,-1.124113000000000 ,-2.707802000000000 ,0.216206000000000 ,-1.162157000000000 ,0.550731000000000 ,-8.710938000000000 ,6.000000000000000 ,3.160000000000000 ,9.630000000000000 ,3.000000000000000 ,2229.000000000000000 ,4.000000000000000 ,2.000000000000000 ,57.000000000000000 ,31.000000000000000 ,335.000000000000000 ,0.000000000000000 ,37.000000000000000 ,-1.000000000000000 ,-122.000000000000000 ,1.000000000000000 ,1.000000000000000 ,1.000000000000000 ,0.000000000000000 ,100.000000000000000 ,3500.000000000000000 ,1.199000000000000 ,0.197000000000000 ,1.460000000000000 ,0.000000000000000 ,0.000000000000000 ,0.000000000000000 
26980.000000000000000 ,1.000000000000000 ,-0.454550000000000 ,0.796583000000000 ,249.010888000000000 ,359.715637000000000 ,-9.054288000000000 ,-16.917982000000000 ,29.672834000000000 ,120.019369800000000 ,35.787628100000000 ,-0.190000000000000 ,14.380000000000000 ,-0.190000000000000 ,-0.996753000000000 ,-2.646262000000000 ,0.146543000000000 ,0.591260000000000 ,-0.060051000000000 ,-10.617500000000000 ,6.000000000000000 ,3.160000000000000 ,9.630000000000000 ,3.000000000000000 ,2229.000000000000000 ,4.000000000000000 ,2.000000000000000 ,57.000000000000000 ,31.000000000000000 ,835.000000000000000 ,0.000000000000000 ,37.000000000000000 ,-1.000000000000000 ,-122.000000000000000 ,1.000000000000000 ,1.000000000000000 ,1.000000000000000 ,0.000000000000000 ,0.000000000000000 ,0.000000000000000 ,1.553000000000000 ,0.047000000000000 ,1.298000000000000 ,0.000000000000000 ,0.000000000000000 ,0.000000000000000 
27080.000000000000000 ,1.000000000000000 ,4.302399000000000 ,-3.406248000000000 ,249.905201000000000 ,359.715637000000000 ,-13.142918000000000 ,29.005658000000000 ,-21.571610000000000 ,120.019371200000000 ,35.787633300000000 ,-0.080000000000000 ,13.650000000000000 ,-0.080000000000000 ,-1.531795000000000 ,-2.652288000000000 ,0.226109000000000 ,-0.782317000000000 ,-0.166304000000000 ,-8.747416000000000 ,6.000000000000000 ,3.160000000000000 ,9.630000000000000 ,3.000000000000000 ,2229.000000000000000 ,4.000000000000000 ,2.000000000000000 ,57.000000000000000 ,32.000000000000000 ,336.000000000000000 ,0.000000000000000 ,37.000000000000000 ,-1.000000000000000 ,-122.000000000000000 ,1.000000000000000 ,1.000000000000000 ,1.000000000000000 ,0.000000000000000 ,100.000000000000000 ,500.000000000000000 ,1.510000000000000 ,0.379000000000000 ,1.394000000000000 ,0.000000000000000 ,0.000000000000000 ,0.000000000000000 
27180.000000000000000 ,1.000000000000000 ,4.767975000000000 ,-1.212423000000000 ,249.960739000000000 ,359.715637000000000 ,-13.049877000000000 ,3.449787000000000 ,29.730377000000000 ,120.019368400000000 ,35.787642200000000 ,-0.260000000000000 ,14.110000000000000 ,-0.260000000000000 ,-1.229398000000000 ,-2.612569000000000 ,0.262683000000000 ,0.254965000000000 ,-0.507025000000000 ,-7.748924000000000 ,6.000000000000000 ,3.160000000000000 ,9.630000000000000 ,3.000000000000000 ,2229.000000000000000 ,4.000000000000000 ,2.000000000000000 ,57.000000000000000 ,32.000000000000000 ,836.000000000000000 ,0.000000000000000 ,37.000000000000000 ,-1.000000000000000 ,-122.000000000000000 ,1.000000000000000 ,1.000000000000000 ,1.000000000000000 ,0.000000000000000 ,0.000000000000000 ,1000.000000000000000 ,1.399000000000000 ,0.176000000000000 ,1.199000000000000 ,0.000000000000000 ,0.000000000000000 ,0.000000000000000 
27280.000000000000000 ,1.000000000000000 ,3.338008000000000 ,-1.085391000000000 ,248.224608000000000 ,359.715637000000000 ,-1.939555000000000 ,-12.649998000000000 ,-41.363941000000000 ,120.019369200000000 ,35.787647000000000 ,-0.170000000000000 ,13.390000000000000 ,-0.170000000000000 ,-1.692815000000000 ,-2.654362000000000 ,0.188682000000000 ,-0.637353000000000 ,-1.251802000000000 ,-7.738625000000000 ,6.000000000000000 ,3.160000000000000 ,9.630000000000000 ,3.000000000000000 ,2229.000000000000000 ,4.000000000000000 ,2.000000000000000 ,57.000000000000000 ,33.000000000000000 ,335.000000000000000 ,0.000000000000000 ,37.000000000000000 ,-1.000000000000000 ,-122.000000000000000 ,1.000000000000000 ,1.000000000000000 ,1.000000000000000 ,0.000000000000000 ,100.000000000000000 ,1500.000000000000000 ,1.665000000000000 ,0.063000000000000 ,1.496000000000000 ,0.000000000000000 ,0.000000000000000 ,0.000000000000000 
27380.000000000000000 ,1.000000000000000 ,5.534929000000000 ,-3.115670000000000 ,247.653328000000000 ,358.472961000000000 ,0.187285000000000 ,6.449669000000000 ,24.712996000000000 ,120.019366400000000 ,35.787656100000000 ,-0.100000000000000 ,13.500000000000000 ,-0.100000000000000 ,-1.383259000000000 ,-2.612748000000000 ,0.325644000000000 ,-0.786781000000000 ,-1.253449000000000 ,-7.429369000000000 ,6.000000000000000 ,3.160000000000000 ,9.630000000000000 ,3.000000000000000 ,2229.000000000000000 ,4.000000000000000 ,2.000000000000000 ,57.000000000000000 ,33.000000000000000 ,834.000000000000000 ,0.000000000000000 ,37.000000000000000 ,-1.000000000000000 ,-122.000000000000000 ,1.000000000000000 ,1.000000000000000 ,1.000000000000000 ,0.000000000000000 ,0.000000000000000 ,2000.000000000000000 ,1.371000000000000 ,0.082000000000000 ,1.205000000000000 ,0.000000000000000 ,0.000000000000000 ,0.000000000000000 
27480.000000000000000 ,1.000000000000000 ,4.404664000000000 ,-2.042013000000000 ,244.210766000000000 ,358.472961000000000 ,7.273264000000000 ,-5.327898000000000 ,-29.253251000000000 ,120.019366900000000 ,35.787662100000000 ,-0.270000000000000 ,12.950000000000000 ,-0.270000000000000 ,-1.829720000000000 ,-2.627685000000000 ,0.344264000000000 ,-0.408921000000000 ,-1.387306000000000 ,-7.332353000000000 ,6.000000000000000 ,3.160000000000000 ,9.630000000000000 ,3.000000000000000 ,2229.000000000000000 ,4.000000000000000 ,2.000000000000000 ,57.000000000000000 ,34.000000000000000 ,335.000000000000000 ,0.000000000000000 ,37.000000000000000 ,-1.000000000000000 ,-122.000000000000000 ,1.000000000000000 ,1.000000000000000 ,1.000000000000000 ,0.000000000000000 ,100.000000000000000 ,2500.000000000000000 ,1.405000000000000 ,0.176000000000000 ,1.331000000000000 ,0.000000000000000 ,0.000000000000000 ,0.000000000000000 
27580.000000000000000 ,1.000000000000000 ,4.810493000000000 ,-0.983823000000000 ,248.340015000000000 ,358.472961000000000 ,24.059883000000000 ,-1.395156000000000 ,25.421461000000000 ,120.019363000000000 ,35.787670100000000 ,-0.310000000000000 ,12.810000000000000 ,-0.310000000000000 ,-1.656368000000000 ,-2.548849000000000 ,0.357044000000000 ,-0.698598000000000 ,-1.060901000000000 ,-9.024909000000000 ,6.000000000000000 ,3.160000000000000 ,9.630000000000000 ,3.000000000000000 ,2229.000000000000000 ,4.000000000000000 ,2.000000000000000 ,57.000000000000000 ,34.000000000000000 ,834.000000000000000 ,0.000000000000000 ,37.000000000000000 ,-1.000000000000000 ,-122.000000000000000 ,1.000000000000000 ,1.000000000000000 ,1.000000000000000 ,0.000000000000000 ,0.000000000000000 ,3000.000000000000000 ,1.427000000000000 ,0.286000000000000 ,1.267000000000000 ,0.000000000000000 ,0.000000000000000 ,0.000000000000000 
27680.000000000000000 ,1.000000000000000 ,4.111015000000000 ,0.182569000000000 ,242.803211000000000 ,358.472961000000000 ,15.746911000000000 ,-0.593175000000000 ,-26.915188000000000 ,120.019363900000000 ,35.787672900000000 ,0.030000000000000 ,12.130000000000000 ,0.030000000000000 ,-1.880954000000000 ,-2.548344000000000 ,0.429248000000000 ,0.444495000000000 ,0.007656000000000 ,-9.609298000000000 ,6.000000000000000 ,3.160000000000000 ,9.630000000000000 ,3.000000000000000 ,2229.000000000000000 ,4.000000000000000 ,2.000000000000000 ,57.000000000000000 ,35.000000000000000 ,335.000000000000000 ,0.000000000000000 ,37.000000000000000 ,-1.000000000000000 ,-122.000000000000000 ,1.000000000000000 ,1.000000000000000 ,1.000000000000000 ,0.000000000000000 ,100.000000000000000 ,3500.000000000000000 ,1.292000000000000 ,-0.094000000000000 ,1.289000000000000 ,0.000000000000000 ,0.000000000000000 ,0.000000000000000 
27780.000000000000000 ,1.000000000000000 ,6.835872000000000 ,-1.764653000000000 ,250.280410000000000 ,358.472961000000000 ,20.052377000000000 ,4.380442000000000 ,12.272652000000000 ,120.019363400000000 ,35.787678400000000 ,0.040000000000000 ,11.700000000000000 ,0.040000000000000 ,-1.811123000000000 ,-2.517737000000000 ,0.361429000000000 ,-1.142817000000000 ,-1.034071000000000 ,-9.284434000000000 ,6.000000000000000 ,3.160000000000000 ,9.630000000000000 ,3.000000000000000 ,2229.000000000000000 ,4.000000000000000 ,2.000000000000000 ,57.000000000000000 ,35.000000000000000 ,835.000000000000000 ,0.000000000000000 ,37.000000000000000 ,-1.000000000000000 ,-122.000000000000000 ,1.000000000000000 ,1.000000000000000 ,1.000000000000000 ,0.000000000000000 ,0.000000000000000 ,0.000000000000000 ,1.428000000000000 ,0.358000000000000 ,1.238000000000000 ,0.000000000000000 ,0.000000000000000 ,0.000000000000000 
27880.000000000000000 ,1.000000000000000 ,6.267572000000000 ,-1.082276000000000 ,240.784003000000000 ,355.075867000000000 ,14.612702000000000 ,-1.595619000000000 ,-14.167735000000000 ,120.019363100000000 ,35.787682000000000 ,-0.080000000000000 ,11.430000000000000 ,-0.080000000000000 ,-1.989385000000000 ,-2.471702000000000 ,0.358496000000000 ,0.268737000000000 ,-0.292775000000000 ,-9.661372000000000 ,6.000000000000000 ,3.160000000000000 ,9.630000000000000 ,3.000000000000000 ,2229.000000000000000 ,4.000000000000000 ,2.000000000000000 ,57.000000000000000 ,36.000000000000000 ,335.000000000000000 ,0.000000000000000 ,37.000000000000000 ,-1.000000000000000 ,-122.000000000000000 ,1.000000000000000 ,1.000000000000000 ,1.000000000000000 ,0.000000000000000 ,100.000000000000000 ,500.000000000000000 ,1.525000000000000 ,-0.227000000000000 ,1.356000000000000 ,0.000000000000000 ,0.000000000000000 ,0.000000000000000 
